{"type": "FeatureCollection","crs": { "type": "name", "properties": { "name": "urn:ogc:def:crs:OGC:1.3:CRS84" } },"features": [
{ "type": "Feature", "properties": { "name": "Afghanistan" }, "geometry": { "type": "Point", "coordinates": [ 66.08669, 33.856399 ] } },
{ "type": "Feature", "properties": { "name": "Angola" }, "geometry": { "type": "Point", "coordinates": [ 17.470572, -12.245869 ] } },
{ "type": "Feature", "properties": { "name": "Albania" }, "geometry": { "type": "Point", "coordinates": [ 20.032426, 41.141353 ] } },
{ "type": "Feature", "properties": { "name": "United Arab Emirates" }, "geometry": { "type": "Point", "coordinates": [ 54.206715, 23.868634 ] } },
{ "type": "Feature", "properties": { "name": "Argentina" }, "geometry": { "type": "Point", "coordinates": [ -65.175361, -35.446821 ] } },
{ "type": "Feature", "properties": { "name": "Armenia" }, "geometry": { "type": "Point", "coordinates": [ 45.00029, 40.216607 ] } },
{ "type": "Feature", "properties": { "name": "Australia" }, "geometry": { "type": "Point", "coordinates": [ 134.502775, -25.730655 ] } },
{ "type": "Feature", "properties": { "name": "Austria" }, "geometry": { "type": "Point", "coordinates": [ 14.076159, 47.613949 ] } },
{ "type": "Feature", "properties": { "name": "Azerbaijan" }, "geometry": { "type": "Point", "coordinates": [ 47.55391, 40.220691 ] } },
{ "type": "Feature", "properties": { "name": "Burundi" }, "geometry": { "type": "Point", "coordinates": [ 29.913901, -3.377392 ] } },
{ "type": "Feature", "properties": { "name": "Belgium" }, "geometry": { "type": "Point", "coordinates": [ 4.580831, 50.652443 ] } },
{ "type": "Feature", "properties": { "name": "Benin" }, "geometry": { "type": "Point", "coordinates": [ 2.337378, 9.647431 ] } },
{ "type": "Feature", "properties": { "name": "Burkina Faso" }, "geometry": { "type": "Point", "coordinates": [ -1.776537, 12.31165 ] } },
{ "type": "Feature", "properties": { "name": "Bangladesh" }, "geometry": { "type": "Point", "coordinates": [ 90.267928, 23.839462 ] } },
{ "type": "Feature", "properties": { "name": "Bulgaria" }, "geometry": { "type": "Point", "coordinates": [ 25.195111, 42.753119 ] } },
{ "type": "Feature", "properties": { "name": "The Bahamas" }, "geometry": { "type": "Point", "coordinates": [ -77.929971, 25.515492 ] } },
{ "type": "Feature", "properties": { "name": "Bosnia and Herzegovina" }, "geometry": { "type": "Point", "coordinates": [ 17.816883, 44.180768 ] } },
{ "type": "Feature", "properties": { "name": "Belarus" }, "geometry": { "type": "Point", "coordinates": [ 27.981354, 53.506344 ] } },
{ "type": "Feature", "properties": { "name": "Belize" }, "geometry": { "type": "Point", "coordinates": [ -88.703421, 17.19709 ] } },
{ "type": "Feature", "properties": { "name": "Bolivia" }, "geometry": { "type": "Point", "coordinates": [ -64.641406, -16.728987 ] } },
{ "type": "Feature", "properties": { "name": "Brazil" }, "geometry": { "type": "Point", "coordinates": [ -53.05434, -10.806774 ] } },
{ "type": "Feature", "properties": { "name": "Brunei" }, "geometry": { "type": "Point", "coordinates": [ 114.915109, 4.690251 ] } },
{ "type": "Feature", "properties": { "name": "Bhutan" }, "geometry": { "type": "Point", "coordinates": [ 90.472425, 27.427969 ] } },
{ "type": "Feature", "properties": { "name": "Botswana" }, "geometry": { "type": "Point", "coordinates": [ 23.773081, -22.099711 ] } },
{ "type": "Feature", "properties": { "name": "Central African Republic" }, "geometry": { "type": "Point", "coordinates": [ 20.374347, 6.542779 ] } },
{ "type": "Feature", "properties": { "name": "Canada" }, "geometry": { "type": "Point", "coordinates": [ -98.142381, 61.469076 ] } },
{ "type": "Feature", "properties": { "name": "Switzerland" }, "geometry": { "type": "Point", "coordinates": [ 8.118301, 46.791738 ] } },
{ "type": "Feature", "properties": { "name": "Chile" }, "geometry": { "type": "Point", "coordinates": [ -71.520644, -39.047014 ] } },
{ "type": "Feature", "properties": { "name": "China" }, "geometry": { "type": "Point", "coordinates": [ 103.883616, 36.555069 ] } },
{ "type": "Feature", "properties": { "name": "Ivory Coast" }, "geometry": { "type": "Point", "coordinates": [ -5.612044, 7.553755 ] } },
{ "type": "Feature", "properties": { "name": "Cameroon" }, "geometry": { "type": "Point", "coordinates": [ 12.611552, 5.663098 ] } },
{ "type": "Feature", "properties": { "name": "Democratic Republic of the Congo" }, "geometry": { "type": "Point", "coordinates": [ 23.582956, -2.850276 ] } },
{ "type": "Feature", "properties": { "name": "Republic of the Congo" }, "geometry": { "type": "Point", "coordinates": [ 15.134462, -0.837801 ] } },
{ "type": "Feature", "properties": { "name": "Colombia" }, "geometry": { "type": "Point", "coordinates": [ -73.077732, 3.927214 ] } },
{ "type": "Feature", "properties": { "name": "Costa Rica" }, "geometry": { "type": "Point", "coordinates": [ -84.175423, 9.965671 ] } },
{ "type": "Feature", "properties": { "name": "Cuba" }, "geometry": { "type": "Point", "coordinates": [ -78.960685, 21.631751 ] } },
{ "type": "Feature", "properties": { "name": "Cyprus" }, "geometry": { "type": "Point", "coordinates": [ 33.039554, 34.907061 ] } },
{ "type": "Feature", "properties": { "name": "Czech Republic" }, "geometry": { "type": "Point", "coordinates": [ 15.334558, 49.775245 ] } },
{ "type": "Feature", "properties": { "name": "Germany" }, "geometry": { "type": "Point", "coordinates": [ 10.288485, 51.133723 ] } },
{ "type": "Feature", "properties": { "name": "Djibouti" }, "geometry": { "type": "Point", "coordinates": [ 42.49802, 11.773044 ] } },
{ "type": "Feature", "properties": { "name": "Denmark" }, "geometry": { "type": "Point", "coordinates": [ 9.876373, 56.063935 ] } },
{ "type": "Feature", "properties": { "name": "Dominican Republic" }, "geometry": { "type": "Point", "coordinates": [ -70.462358, 18.884487 ] } },
{ "type": "Feature", "properties": { "name": "Algeria" }, "geometry": { "type": "Point", "coordinates": [ 2.598048, 28.185481 ] } },
{ "type": "Feature", "properties": { "name": "Ecuador" }, "geometry": { "type": "Point", "coordinates": [ -78.384167, -1.454772 ] } },
{ "type": "Feature", "properties": { "name": "Egypt" }, "geometry": { "type": "Point", "coordinates": [ 29.844462, 26.50662 ] } },
{ "type": "Feature", "properties": { "name": "Eritrea" }, "geometry": { "type": "Point", "coordinates": [ 38.678177, 15.427276 ] } },
{ "type": "Feature", "properties": { "name": "Spain" }, "geometry": { "type": "Point", "coordinates": [ -3.617021, 40.348656 ] } },
{ "type": "Feature", "properties": { "name": "Estonia" }, "geometry": { "type": "Point", "coordinates": [ 25.824728, 58.643695 ] } },
{ "type": "Feature", "properties": { "name": "Ethiopia" }, "geometry": { "type": "Point", "coordinates": [ 39.551256, 8.653999 ] } },
{ "type": "Feature", "properties": { "name": "Finland" }, "geometry": { "type": "Point", "coordinates": [ 26.211765, 64.504094 ] } },
{ "type": "Feature", "properties": { "name": "Fiji" }, "geometry": { "type": "Point", "coordinates": [ 163.853147, -17.316309 ] } },
{ "type": "Feature", "properties": { "name": "France" }, "geometry": { "type": "Point", "coordinates": [ 2.446569, 46.535962 ] } },
{ "type": "Feature", "properties": { "name": "Gabon" }, "geometry": { "type": "Point", "coordinates": [ 11.687751, -0.647048 ] } },
{ "type": "Feature", "properties": { "name": "United Kingdom" }, "geometry": { "type": "Point", "coordinates": [ -2.853136, 53.914774 ] } },
{ "type": "Feature", "properties": { "name": "Georgia" }, "geometry": { "type": "Point", "coordinates": [ 43.48154, 42.162019 ] } },
{ "type": "Feature", "properties": { "name": "Ghana" }, "geometry": { "type": "Point", "coordinates": [ -1.236968, 7.928652 ] } },
{ "type": "Feature", "properties": { "name": "Guinea" }, "geometry": { "type": "Point", "coordinates": [ -11.060854, 10.448273 ] } },
{ "type": "Feature", "properties": { "name": "Gambia" }, "geometry": { "type": "Point", "coordinates": [ -15.431873, 13.475334 ] } },
{ "type": "Feature", "properties": { "name": "Guinea Bissau" }, "geometry": { "type": "Point", "coordinates": [ -15.110624, 12.022704 ] } },
{ "type": "Feature", "properties": { "name": "Equatorial Guinea" }, "geometry": { "type": "Point", "coordinates": [ 10.366031, 1.645864 ] } },
{ "type": "Feature", "properties": { "name": "Greece" }, "geometry": { "type": "Point", "coordinates": [ 22.719813, 39.066716 ] } },
{ "type": "Feature", "properties": { "name": "Guatemala" }, "geometry": { "type": "Point", "coordinates": [ -90.369459, 15.699361 ] } },
{ "type": "Feature", "properties": { "name": "Guyana" }, "geometry": { "type": "Point", "coordinates": [ -58.971203, 4.790225 ] } },
{ "type": "Feature", "properties": { "name": "Honduras" }, "geometry": { "type": "Point", "coordinates": [ -86.589964, 14.822947 ] } },
{ "type": "Feature", "properties": { "name": "Croatia" }, "geometry": { "type": "Point", "coordinates": [ 16.566191, 45.016234 ] } },
{ "type": "Feature", "properties": { "name": "Haiti" }, "geometry": { "type": "Point", "coordinates": [ -72.658013, 18.900701 ] } },
{ "type": "Feature", "properties": { "name": "Hungary" }, "geometry": { "type": "Point", "coordinates": [ 19.357629, 47.199951 ] } },
{ "type": "Feature", "properties": { "name": "Indonesia" }, "geometry": { "type": "Point", "coordinates": [ 117.423408, -2.221738 ] } },
{ "type": "Feature", "properties": { "name": "India" }, "geometry": { "type": "Point", "coordinates": [ 79.593704, 22.925006 ] } },
{ "type": "Feature", "properties": { "name": "Ireland" }, "geometry": { "type": "Point", "coordinates": [ -8.010237, 53.180591 ] } },
{ "type": "Feature", "properties": { "name": "Iran" }, "geometry": { "type": "Point", "coordinates": [ 54.285451, 32.518917 ] } },
{ "type": "Feature", "properties": { "name": "Iraq" }, "geometry": { "type": "Point", "coordinates": [ 43.756911, 33.036823 ] } },
{ "type": "Feature", "properties": { "name": "Iceland" }, "geometry": { "type": "Point", "coordinates": [ -18.761029, 65.074276 ] } },
{ "type": "Feature", "properties": { "name": "Israel" }, "geometry": { "type": "Point", "coordinates": [ 35.00385, 31.484918 ] } },
{ "type": "Feature", "properties": { "name": "Italy" }, "geometry": { "type": "Point", "coordinates": [ 12.140788, 42.751183 ] } },
{ "type": "Feature", "properties": { "name": "Jamaica" }, "geometry": { "type": "Point", "coordinates": [ -77.324255, 18.137636 ] } },
{ "type": "Feature", "properties": { "name": "Jordan" }, "geometry": { "type": "Point", "coordinates": [ 36.779455, 31.245491 ] } },
{ "type": "Feature", "properties": { "name": "Japan" }, "geometry": { "type": "Point", "coordinates": [ 138.064962, 37.663111 ] } },
{ "type": "Feature", "properties": { "name": "Kazakhstan" }, "geometry": { "type": "Point", "coordinates": [ 67.284609, 48.191662 ] } },
{ "type": "Feature", "properties": { "name": "Kenya" }, "geometry": { "type": "Point", "coordinates": [ 37.791555, 0.595966 ] } },
{ "type": "Feature", "properties": { "name": "Kyrgyzstan" }, "geometry": { "type": "Point", "coordinates": [ 74.620405, 41.506894 ] } },
{ "type": "Feature", "properties": { "name": "Cambodia" }, "geometry": { "type": "Point", "coordinates": [ 104.876085, 12.684729 ] } },
{ "type": "Feature", "properties": { "name": "Kuwait" }, "geometry": { "type": "Point", "coordinates": [ 47.600099, 29.307267 ] } },
{ "type": "Feature", "properties": { "name": "Laos" }, "geometry": { "type": "Point", "coordinates": [ 103.75026, 18.444978 ] } },
{ "type": "Feature", "properties": { "name": "Lebanon" }, "geometry": { "type": "Point", "coordinates": [ 35.870986, 33.911827 ] } },
{ "type": "Feature", "properties": { "name": "Liberia" }, "geometry": { "type": "Point", "coordinates": [ -9.410836, 6.43162 ] } },
{ "type": "Feature", "properties": { "name": "Libya" }, "geometry": { "type": "Point", "coordinates": [ 17.974353, 26.99746 ] } },
{ "type": "Feature", "properties": { "name": "Sri Lanka" }, "geometry": { "type": "Point", "coordinates": [ 80.667236, 7.700534 ] } },
{ "type": "Feature", "properties": { "name": "Lesotho" }, "geometry": { "type": "Point", "coordinates": [ 28.170105, -29.625291 ] } },
{ "type": "Feature", "properties": { "name": "Lithuania" }, "geometry": { "type": "Point", "coordinates": [ 23.88064, 55.284319 ] } },
{ "type": "Feature", "properties": { "name": "Luxembourg" }, "geometry": { "type": "Point", "coordinates": [ 5.965223, 49.765705 ] } },
{ "type": "Feature", "properties": { "name": "Latvia" }, "geometry": { "type": "Point", "coordinates": [ 24.833296, 56.807175 ] } },
{ "type": "Feature", "properties": { "name": "Morocco" }, "geometry": { "type": "Point", "coordinates": [ -8.42048, 29.885394 ] } },
{ "type": "Feature", "properties": { "name": "Moldova" }, "geometry": { "type": "Point", "coordinates": [ 28.410483, 47.203676 ] } },
{ "type": "Feature", "properties": { "name": "Madagascar" }, "geometry": { "type": "Point", "coordinates": [ 46.691171, -19.356114 ] } },
{ "type": "Feature", "properties": { "name": "Mexico" }, "geometry": { "type": "Point", "coordinates": [ -102.57635, 23.935372 ] } },
{ "type": "Feature", "properties": { "name": "Macedonia" }, "geometry": { "type": "Point", "coordinates": [ 21.697897, 41.605929 ] } },
{ "type": "Feature", "properties": { "name": "Mali" }, "geometry": { "type": "Point", "coordinates": [ -3.543294, 17.267772 ] } },
{ "type": "Feature", "properties": { "name": "Malta" }, "geometry": { "type": "Point", "coordinates": [ 14.40522, 35.921513 ] } },
{ "type": "Feature", "properties": { "name": "Myanmar" }, "geometry": { "type": "Point", "coordinates": [ 96.505841, 21.017 ] } },
{ "type": "Feature", "properties": { "name": "Montenegro" }, "geometry": { "type": "Point", "coordinates": [ 19.286181, 42.789038 ] } },
{ "type": "Feature", "properties": { "name": "Mongolia" }, "geometry": { "type": "Point", "coordinates": [ 102.946405, 46.823682 ] } },
{ "type": "Feature", "properties": { "name": "Mozambique" }, "geometry": { "type": "Point", "coordinates": [ 35.472617, -17.230447 ] } },
{ "type": "Feature", "properties": { "name": "Mauritania" }, "geometry": { "type": "Point", "coordinates": [ -10.326397, 20.209267 ] } },
{ "type": "Feature", "properties": { "name": "Malawi" }, "geometry": { "type": "Point", "coordinates": [ 34.193605, -13.172833 ] } },
{ "type": "Feature", "properties": { "name": "Malaysia" }, "geometry": { "type": "Point", "coordinates": [ 109.698148, 3.725588 ] } },
{ "type": "Feature", "properties": { "name": "Namibia" }, "geometry": { "type": "Point", "coordinates": [ 17.156168, -22.099777 ] } },
{ "type": "Feature", "properties": { "name": "Niger" }, "geometry": { "type": "Point", "coordinates": [ 9.324429, 17.345552 ] } },
{ "type": "Feature", "properties": { "name": "Nigeria" }, "geometry": { "type": "Point", "coordinates": [ 7.995128, 9.548318 ] } },
{ "type": "Feature", "properties": { "name": "Nicaragua" }, "geometry": { "type": "Point", "coordinates": [ -85.020318, 12.84819 ] } },
{ "type": "Feature", "properties": { "name": "Netherlands" }, "geometry": { "type": "Point", "coordinates": [ 5.512217, 52.2987 ] } },
{ "type": "Feature", "properties": { "name": "Norway" }, "geometry": { "type": "Point", "coordinates": [ 15.468126, 69.156856 ] } },
{ "type": "Feature", "properties": { "name": "Nepal" }, "geometry": { "type": "Point", "coordinates": [ 84.013174, 28.23944 ] } },
{ "type": "Feature", "properties": { "name": "New Zealand" }, "geometry": { "type": "Point", "coordinates": [ 172.701926, -41.662579 ] } },
{ "type": "Feature", "properties": { "name": "Oman" }, "geometry": { "type": "Point", "coordinates": [ 56.098673, 20.611174 ] } },
{ "type": "Feature", "properties": { "name": "Pakistan" }, "geometry": { "type": "Point", "coordinates": [ 69.413998, 29.97346 ] } },
{ "type": "Feature", "properties": { "name": "Panama" }, "geometry": { "type": "Point", "coordinates": [ -80.109165, 8.530019 ] } },
{ "type": "Feature", "properties": { "name": "Peru" }, "geometry": { "type": "Point", "coordinates": [ -74.391806, -9.191563 ] } },
{ "type": "Feature", "properties": { "name": "Philippines" }, "geometry": { "type": "Point", "coordinates": [ 122.902672, 11.763799 ] } },
{ "type": "Feature", "properties": { "name": "Papua New Guinea" }, "geometry": { "type": "Point", "coordinates": [ 145.317575, -6.451645 ] } },
{ "type": "Feature", "properties": { "name": "Poland" }, "geometry": { "type": "Point", "coordinates": [ 19.311014, 52.14826 ] } },
{ "type": "Feature", "properties": { "name": "North Korea" }, "geometry": { "type": "Point", "coordinates": [ 127.165017, 40.143021 ] } },
{ "type": "Feature", "properties": { "name": "Portugal" }, "geometry": { "type": "Point", "coordinates": [ -8.055766, 39.63405 ] } },
{ "type": "Feature", "properties": { "name": "Paraguay" }, "geometry": { "type": "Point", "coordinates": [ -58.387388, -23.248042 ] } },
{ "type": "Feature", "properties": { "name": "Qatar" }, "geometry": { "type": "Point", "coordinates": [ 51.183503, 25.321851 ] } },
{ "type": "Feature", "properties": { "name": "Romania" }, "geometry": { "type": "Point", "coordinates": [ 24.943252, 45.857101 ] } },
{ "type": "Feature", "properties": { "name": "Russia" }, "geometry": { "type": "Point", "coordinates": [ 96.875223, 61.980841 ] } },
{ "type": "Feature", "properties": { "name": "Rwanda" }, "geometry": { "type": "Point", "coordinates": [ 29.918966, -2.013516 ] } },
{ "type": "Feature", "properties": { "name": "Saudi Arabia" }, "geometry": { "type": "Point", "coordinates": [ 44.516364, 24.12329 ] } },
{ "type": "Feature", "properties": { "name": "Sudan" }, "geometry": { "type": "Point", "coordinates": [ 29.862604, 15.990585 ] } },
{ "type": "Feature", "properties": { "name": "Senegal" }, "geometry": { "type": "Point", "coordinates": [ -14.509803, 14.35414 ] } },
{ "type": "Feature", "properties": { "name": "Solomon Islands" }, "geometry": { "type": "Point", "coordinates": [ 159.966615, -8.852497 ] } },
{ "type": "Feature", "properties": { "name": "Sierra Leone" }, "geometry": { "type": "Point", "coordinates": [ -11.795257, 8.530354 ] } },
{ "type": "Feature", "properties": { "name": "El Salvador" }, "geometry": { "type": "Point", "coordinates": [ -88.872903, 13.726092 ] } },
{ "type": "Feature", "properties": { "name": "Somalia" }, "geometry": { "type": "Point", "coordinates": [ 45.726701, 4.752348 ] } },
{ "type": "Feature", "properties": { "name": "Republic of Serbia" }, "geometry": { "type": "Point", "coordinates": [ 20.819651, 44.233037 ] } },
{ "type": "Feature", "properties": { "name": "Suriname" }, "geometry": { "type": "Point", "coordinates": [ -55.911456, 4.120008 ] } },
{ "type": "Feature", "properties": { "name": "Slovakia" }, "geometry": { "type": "Point", "coordinates": [ 19.507657, 48.726711 ] } },
{ "type": "Feature", "properties": { "name": "Slovenia" }, "geometry": { "type": "Point", "coordinates": [ 14.938152, 46.125422 ] } },
{ "type": "Feature", "properties": { "name": "Sweden" }, "geometry": { "type": "Point", "coordinates": [ 16.579062, 62.87053 ] } },
{ "type": "Feature", "properties": { "name": "Swaziland" }, "geometry": { "type": "Point", "coordinates": [ 31.395256, -26.489855 ] } },
{ "type": "Feature", "properties": { "name": "Syria" }, "geometry": { "type": "Point", "coordinates": [ 38.544239, 35.012614 ] } },
{ "type": "Feature", "properties": { "name": "Chad" }, "geometry": { "type": "Point", "coordinates": [ 18.58133, 15.328867 ] } },
{ "type": "Feature", "properties": { "name": "Togo" }, "geometry": { "type": "Point", "coordinates": [ 0.996404, 8.439542 ] } },
{ "type": "Feature", "properties": { "name": "Thailand" }, "geometry": { "type": "Point", "coordinates": [ 101.006134, 15.016975 ] } },
{ "type": "Feature", "properties": { "name": "Tajikistan" }, "geometry": { "type": "Point", "coordinates": [ 71.034435, 38.583081 ] } },
{ "type": "Feature", "properties": { "name": "Turkmenistan" }, "geometry": { "type": "Point", "coordinates": [ 59.27543, 39.09124 ] } },
{ "type": "Feature", "properties": { "name": "East Timor" }, "geometry": { "type": "Point", "coordinates": [ 125.9663, -8.76776 ] } },
{ "type": "Feature", "properties": { "name": "Trinidad and Tobago" }, "geometry": { "type": "Point", "coordinates": [ -61.330367, 10.428237 ] } },
{ "type": "Feature", "properties": { "name": "Tunisia" }, "geometry": { "type": "Point", "coordinates": [ 9.534716, 34.172939 ] } },
{ "type": "Feature", "properties": { "name": "Turkey" }, "geometry": { "type": "Point", "coordinates": [ 35.116901, 39.068372 ] } },
{ "type": "Feature", "properties": { "name": "United Republic of Tanzania" }, "geometry": { "type": "Point", "coordinates": [ 34.752988, -6.257733 ] } },
{ "type": "Feature", "properties": { "name": "Uganda" }, "geometry": { "type": "Point", "coordinates": [ 32.357548, 1.295487 ] } },
{ "type": "Feature", "properties": { "name": "Ukraine" }, "geometry": { "type": "Point", "coordinates": [ 31.369533, 48.973018 ] } },
{ "type": "Feature", "properties": { "name": "Uruguay" }, "geometry": { "type": "Point", "coordinates": [ -56.003279, -32.780905 ] } },
{ "type": "Feature", "properties": { "name": "United States of America" }, "geometry": { "type": "Point", "coordinates": [ -112.599438, 45.70563 ] } },
{ "type": "Feature", "properties": { "name": "Uzbekistan" }, "geometry": { "type": "Point", "coordinates": [ 63.20364, 41.748603 ] } },
{ "type": "Feature", "properties": { "name": "Vietnam" }, "geometry": { "type": "Point", "coordinates": [ 106.285841, 16.657938 ] } },
{ "type": "Feature", "properties": { "name": "Vanuatu" }, "geometry": { "type": "Point", "coordinates": [ 167.073751, -15.542677 ] } },
{ "type": "Feature", "properties": { "name": "Yemen" }, "geometry": { "type": "Point", "coordinates": [ 47.535045, 15.913232 ] } },
{ "type": "Feature", "properties": { "name": "South Africa" }, "geometry": { "type": "Point", "coordinates": [ 25.048014, -28.947033 ] } },
{ "type": "Feature", "properties": { "name": "Zambia" }, "geometry": { "type": "Point", "coordinates": [ 27.727592, -13.395068 ] } },
{ "type": "Feature", "properties": { "name": "Zimbabwe" }, "geometry": { "type": "Point", "coordinates": [ 29.788548, -18.906988 ] } }
]
}
